Time,Type,Model,ID,description,position X,position Y,position Z,yawAngle,pitchAngle,rollAngle,direction X,direction Y,direction Z,bodyPitchAngle,bodyRollAngle,RPM,gearNumber,speedVectInMetresPerSecond X,speedVectInMetresPerSecond Y,speedVectInMetresPerSecond Z,speedInKmPerHour,speedInMetresPerSecond,localAccelInMetresPerSecond2 X,localAccelInMetresPerSecond2 Y,localAccelInMetresPerSecond2 Z,bodyRotSpeedInRadsPerSecond Yaw,bodyRotSpeedInRadsPerSecond Pitch,bodyRotSpeedInRadsPerSecond Roll,bodyRotAccelInRadsPerSecond Yaw,bodyRotAccelInRadsPerSecond Pitch,bodyRotAccelInRadsPerSecond Roll,rotSpeedInRadsPerSecond Yaw,rotSpeedInRadsPerSecond Pitch,rotSpeedInRadsPerSecond Roll,rotAccelInRadsPerSecond Yaw,rotAccelInRadsPerSecond Pitch,rotAccelInRadsPerSecond Roll,distanceTravelled,steering,steeringVelocity,turningCurvature,throttle,brake,lightState,automaticControl,dragForce,mass,wheelBase,centerOfGravityHeight,centerOfGravityPosition,rollAxisHeight,trailer,trailerAngle,trailerPitchAngle,trailerWheelbase,inIntersection,road,distanceAlongRoad,distanceToLeftBorder,distanceToRightBorder,carriagewayWidth,offsetFromRoadCenter,offsetFromLaneCenter,roadLongitudinalSlope,roadLateralSlope,laneNumber,laneWidth,laneDirection X,laneDirection Y,laneDirection Z,laneCurvature,drivingForwards,speedLimit,speedOver,leftLaneOverLap,rightLaneOverLap,collisionWithUser,
0.722304331722381,oo,car,5,,2164.15478515625,4.57501935958862,4331.93226315036,2.15879894687382,-8.48055061503772E-5,-0.0156246004626155,0.832050263881683,8.48055060487241E-5,-0.554700195789337,-8.48055060487241E-5,-0.0156246004626155,997,0,0,0,0,50.0006607055664,13.8890724182129,0,0,0.0108099207282066,0,0,0,0,0,0,0,0,0,0,0,0,0.234876379370689,0,0,0,0.0500000007450581,0,,Auto,80.0627105618132,2181.36572265625,2.79999995231628,0.600000023841858,1.20000004768372,0.349999994039536,,N/A,N/A,N/A,False,Road 1,0.234830692410469,0,0,0,0,0,0,0,2,0,0,0,0,0,True,50,True,0.521129876410163,2.11089558246194,N/A,
0.739616495084586,oo,car,5,,2164.35424804688,4.57503986358643,4332.06507565036,2.15879894687382,-8.42946247846713E-5,-0.015624551102519,0.832050263881683,8.42946246848442E-5,-0.554700195789337,-8.42946246848442E-5,-0.015624551102519,997,0,0,0,0,50.0013336181641,13.8892593383789,0,0,0.0108036128804088,0,0,0,0,0,0,0,0,0,0,0,0,0.474621295928955,-2.26414476856007E-6,0,0,0.0500000007450581,0,,Auto,80.0648655560996,2181.36572265625,2.79999995231628,0.600000023841858,1.20000004768372,0.349999994039536,,N/A,N/A,N/A,False,Road 1,0.474469065666199,0,0,0,0,0,0,0,2,0,0,0,0,0,True,50,True,0.521129876410163,2.11089558246194,N/A,
0.755736285705361,oo,car,5,,2164.541015625,4.5750584602356,4332.18958736911,2.15879894687382,-8.41243309961075E-5,-0.0156244998797774,0.832050263881683,8.41243308968842E-5,-0.554700195789337,-8.41243308968842E-5,-0.0156244998797774,997,0,0,0,0,50.0019618988037,13.8894338607788,0,0,0.0108081512153149,0,0,0,0,0,0,0,0,0,0,0,0,0.699060082435608,-4.57464329883805E-6,0,0,0.0500000007450581,0,,Auto,80.0668776432718,2181.36572265625,2.79999995231628,0.600000023841858,1.20000004768372,0.349999994039536,,N/A,N/A,N/A,False,Road 1,0.698939561843872,0,0,0,0,0,0,0,2,0,0,0,0,0,True,50,True,0.521129876410163,2.11089558246194,N/A,
0.772335345908582,oo,car,5,,2164.73266601563,4.57507801055908,4332.31751705661,2.15879894687382,-8.48055061503772E-5,-0.0156244533136487,0.832050263881683,8.48055060487241E-5,-0.554700195789337,-8.48055060487241E-5,-0.0156244533136487,997,0,0,0,0,50.0026073455811,13.8896131515503,0,0,0.0108093833550811,0,0,0,0,0,0,0,0,0,0,0,0,0.929358959197998,-6.73889962854446E-6,0,0,0.0500000007450581,0,,Auto,80.0689447318312,2181.36572265625,2.79999995231628,0.600000023841858,1.20000004768372,0.349999994039536,,N/A,N/A,N/A,False,Road 1,0.929368853569031,0,0,0,0,0,0,0,2,0,0,0,0,0,True,50,True,0.521129876410163,2.11089558246194,N/A,
0.789041059212552,oo,car,5,,2164.92553710938,4.57509756088257,4332.44593502536,2.15879894687382,-8.41243309961075E-5,-0.0156244039535522,0.832050263881683,8.41243308968842E-5,-0.554700195789337,-8.41243308968842E-5,-0.0156244039535522,997,0,0,0,0,50.0032562255859,13.8897933959961,0,0,0.0108022624626756,0,0,0,0,0,0,0,0,0,0,0,0,1.1611236333847,-8.96060828381451E-6,0,0,0.0500000007450581,0,,Auto,80.0710228424384,2181.36572265625,2.79999995231628,0.600000023841858,1.20000004768372,0.349999994039536,,N/A,N/A,N/A,False,Road 1,1.16108477115631,0,0,0,0,0,0,0,2,0,0,0,0,0,True,50,True,0.521129876410163,2.11089558246194,N/A,
0.805669125489199,oo,car,5,,2165.11791992188,4.57511711120605,4332.57435299411,2.15879894687382,-8.49757926629932E-5,-0.0156243555247784,0.832050263881683,8.49757925607264E-5,-0.554700195789337,-8.49757925607264E-5,-0.0156243555247784,997,0,0,0,0,50.0039051055908,13.8899736404419,0,0,0.0108084883540869,0,0,0,0,0,0,0,0,0,0,0,0,1.39224672317505,-1.11947210825747E-5,0,0,0.0500000007450581,0,,Auto,80.073100980013,2181.36572265625,2.79999995231628,0.600000023841858,1.20000004768372,0.349999994039536,,N/A,N/A,N/A,False,Road 1,1.3923944234848,0,0,0,0,0,0,0,2,0,0,0,0,0,True,50,True,0.521129876410163,2.11089558246194,N/A,
0.822377070029586,oo,car,5,,2165.31225585938,4.57513666152954,4332.70374752536,2.15879894687382,-8.41243309961075E-5,-0.0156243061646819,0.832050263881683,8.41243308968842E-5,-0.554700195789337,-8.41243308968842E-5,-0.0156243061646819,997,0,0,0,0,50.0082790374756,13.891188621521,0,0,0.0722457841038704,0,0,0,0,0,0,0,0,0,0,0,0,1.62584221363068,-1.3424917597149E-5,0,0,0.100000001490116,0,,Auto,80.0871098701811,2181.36572265625,2.79999995231628,0.600000023841858,1.20000004768372,0.349999994039536,,N/A,N/A,N/A,False,Road 1,1.62587082386017,0,0,0,0,0,0,0,2,0,0,0,0,0,True,50,True,0.521129876410163,2.11089558246194,N/A,
0.839089477042808,oo,car,5,,2165.50537109375,4.57515621185303,4332.83265377536,2.15879894687382,-8.48055061503772E-5,-0.015624257735908,0.832050263881683,8.48055060487241E-5,-0.554700195789337,-8.48055060487241E-5,-0.015624257735908,997,0,0,0,0,50.01262550354,13.8923959732056,0,0,0.0722547471523285,0,0,0,0,0,0,0,0,0,0,0,0,1.85795164108276,-1.56760033860337E-5,0,0,0.100000001490116,0,,Auto,80.101032006248,2181.36572265625,2.79999995231628,0.600000023841858,1.20000004768372,0.349999994039536,,N/A,N/A,N/A,False,Road 1,1.8580607175827,0,0,0,0,0,0,0,2,0,0,0,0,0,True,50,True,0.521129876410163,2.11089558246194,N/A,
0.855674257332958,oo,car,5,,2165.70239257813,4.57517623901367,4332.96400143161,2.15879894687382,-8.49757926629932E-5,-0.0156242083758116,0.832050263881683,8.49757925607264E-5,-0.554700195789337,-8.49757925607264E-5,-0.0156242083758116,997,0,0,0,0,50.017057800293,13.893627166748,0,0,0.0722486898303032,0,0,0,0,0,0,0,0,0,0,0,0,2.09474992752075,-1.79146882146597E-5,0,0,0.100000001490116,0,,Auto,80.1152303120787,2181.36572265625,2.79999995231628,0.600000023841858,1.20000004768372,0.349999994039536,,N/A,N/A,N/A,False,Road 1,2.09485507011414,0,0,0,0,0,0,0,2,0,0,0,0,0,True,50,True,0.521129876410163,2.11089558246194,N/A,
0.872322850984645,oo,car,5,,2165.89306640625,4.5751953125,4333.09095455661,2.15879894687382,-8.41243309961075E-5,-0.0156241580843925,0.832050263881683,8.41243308968842E-5,-0.554700195789337,-8.41243308968842E-5,-0.0156241580843925,997,0,0,0,0,50.0213493347168,13.8948192596436,0,0,0.0722476691007614,0,0,0,0,0,0,0,0,0,0,0,0,2.32403564453125,-2.01977654796792E-5,0,0,0.100000001490116,0,,Auto,80.128978902415,2181.36572265625,2.79999995231628,0.600000023841858,1.20000004768372,0.349999994039536,,N/A,N/A,N/A,False,Road 1,2.32393026351929,0,0,0,0,0,0,0,2,0,0,0,0,0,True,50,True,0.521129876410163,2.11089558246194,N/A,
0.889350308579997,oo,car,5,,2166.0869140625,4.57521533966064,4333.22034908786,2.15879894687382,-8.49757926629932E-5,-0.0156241096556187,0.832050263881683,8.49757925607264E-5,-0.554700195789337,-8.49757925607264E-5,-0.0156241096556187,997,0,0,0,0,50.0257129669189,13.8960313796997,0,0,0.0722566097974777,0,0,0,0,0,0,0,0,0,0,0,0,2.55712985992432,-2.24064169742633E-5,0,0,0.100000001490116,0,,Auto,80.1429596785592,2181.36572265625,2.79999995231628,0.600000023841858,1.20000004768372,0.349999994039536,,N/A,N/A,N/A,False,Road 1,2.55700016021729,0,0,0,0,0,0,0,2,0,0,0,0,0,True,50,True,0.521129876410163,2.11089558246194,N/A,
0.905700362799041,oo,car,5,,2166.27514648438,4.57523441314697,4333.34583736911,2.15879894687382,-8.49757926629932E-5,-0.0156240612268448,0.832050263881683,8.49757925607264E-5,-0.554700195789337,-8.49757925607264E-5,-0.0156240612268448,998,0,0,0,0,50.0299495697021,13.8972082138062,0,0,0.0722488760948181,0,0,0,0,0,0,0,0,0,0,0,0,2.78345346450806,-2.46535855694674E-5,0,0,0.100000001490116,0,,Auto,80.1565346280481,2181.36572265625,2.79999995231628,0.600000023841858,1.20000004768372,0.349999994039536,,N/A,N/A,N/A,False,Road 1,2.78323125839233,0,0,0,0,0,0,0,2,0,0,0,0,0,True,50,True,0.521129876410163,2.11089558246194,N/A,
0.922486400614036,oo,car,5,,2166.47509765625,4.57525253295898,4333.47913815036,2.15879894687382,-8.42946247846713E-5,-0.0156240127980709,0.832050263881683,8.42946246848442E-5,-0.554700195789337,-8.42946246848442E-5,-0.0156240127980709,998,0,0,0,0,50.0382751464844,13.8995208740234,0,0,0.133717373013496,0,0,0,0,0,0,0,0,0,0,0,0,3.02377891540527,-2.68348194367718E-5,0,0,0.150000005960464,0,,Auto,80.1832148432715,2181.36572265625,2.79999995231628,0.600000023841858,1.20000004768372,0.349999994039536,,N/A,N/A,N/A,False,Road 1,3.02354693412781,0,0,0,0,0,0,0,2,0,0,0,0,0,True,50,True,0.521129876410163,2.11089558246194,N/A,
0.938958280341468,oo,car,5,,2166.65991210938,4.57527303695679,4333.60218502536,2.15879894687382,-8.41243309961075E-5,-0.0156239625066519,0.832050263881683,8.41243308968842E-5,-0.554700195789337,-8.41243308968842E-5,-0.0156239625066519,998,0,0,0,0,50.0459690093994,13.9016580581665,0,0,0.133732184767723,0,0,0,0,0,0,0,0,0,0,0,0,3.24589943885803,-2.91518445010297E-5,0,0,0.150000005960464,0,,Auto,80.2078746098144,2181.36572265625,2.79999995231628,0.600000023841858,1.20000004768372,0.349999994039536,,N/A,N/A,N/A,False,Road 1,3.24537658691406,0,0,0,0,0,0,0,2,0,0,0,0,0,True,50,True,0.521129876410163,2.11089558246194,N/A,
0.955580099156146,oo,car,5,,2166.85278320313,4.57529449462891,4333.73060299411,2.15879894687382,-8.41243309961075E-5,-0.0156239159405231,0.832050263881683,8.41243308968842E-5,-0.554700195789337,-8.41243308968842E-5,-0.0156239159405231,998,0,0,0,0,50.0539958953857,13.9038877487183,0,0,0.13374137878418,0,0,0,0,0,0,0,0,0,0,0,0,3.47768998146057,-3.12906377075706E-5,0,0,0.150000005960464,0,,Auto,80.2336057969062,2181.36572265625,2.79999995231628,0.600000023841858,1.20000004768372,0.349999994039536,,N/A,N/A,N/A,False,Road 1,3.47709226608276,0,0,0,0,0,0,0,2,0,0,0,0,0,True,50,True,0.521129876410163,2.11089558246194,N/A,
0.972292059922085,oo,car,5,,2167.04614257813,4.57531213760376,4333.85950924411,2.15879894687382,-8.41243309961075E-5,-0.0156238665804267,0.832050263881683,8.41243308968842E-5,-0.554700195789337,-8.41243308968842E-5,-0.0156238665804267,998,0,0,0,0,50.0620433807373,13.9061231613159,0,0,0.133749231696129,0,0,0,0,0,0,0,0,0,0,0,0,3.71006989479065,-3.35247532348149E-5,0,0,0.150000005960464,0,,Auto,80.2594071604398,2181.36572265625,2.79999995231628,0.600000023841858,1.20000004768372,0.349999994039536,,N/A,N/A,N/A,False,Road 1,3.70968842506409,0,0,0,0,0,0,0,2,0,0,0,0,0,True,50,True,0.521129876410163,2.11089558246194,N/A,
0.988892012619873,oo,car,5,,2167.23779296875,4.57533168792725,4333.98743893161,2.15879894687382,-8.42946247846713E-5,-0.0156238172203302,0.832050263881683,8.42946246848442E-5,-0.554700195789337,-8.42946246848442E-5,-0.0156238172203302,998,0,0,0,0,50.070015335083,13.9083375930786,0,0,0.133757099509239,0,0,0,0,0,0,0,0,0,0,0,0,3.94035220146179,-3.57673488906585E-5,0,0,0.150000005960464,0,,Auto,80.2849704507003,2181.36572265625,2.79999995231628,0.600000023841858,1.20000004768372,0.349999994039536,,N/A,N/A,N/A,False,Road 1,3.94011759757996,0,0,0,0,0,0,0,2,0,0,0,0,0,True,50,True,0.521129876410163,2.11089558246194,N/A,
1.00564011941577,oo,car,5,,2167.43481445313,4.57535171508789,4334.11878658786,2.15879894687382,-8.42946247846713E-5,-0.0156237687915564,0.832050263881683,8.42946246848442E-5,-0.554700195789337,-8.42946246848442E-5,-0.0156237687915564,998,0,0,0,0,50.0782138824463,13.9106149673462,0,0,0.13376322388649,0,0,0,0,0,0,0,0,0,0,0,0,4.17720127105713,-3.79890589101706E-5,0,0,0.150000005960464,0,,Auto,80.3112645917115,2181.36572265625,2.79999995231628,0.600000023841858,1.20000004768372,0.349999994039536,,N/A,N/A,N/A,False,Road 1,4.17691230773926,0,0,0,0,0,0,0,2,0,0,0,0,0,True,50,True,0.521129876410163,2.11089558246194,N/A,
1.02230968668978,oo,car,5,,2167.62475585938,4.57537078857422,4334.24525143161,2.15879894687382,-8.42946247846713E-5,-0.0156237194314599,0.832050263881683,8.42946246848442E-5,-0.554700195789337,-8.42946246848442E-5,-0.0156237194314599,999,0,0,0,0,50.0861137390137,13.9128093719482,0,0,0.133771225810051,0,0,0,0,0,0,0,0,0,0,0,0,4.40538501739502,-4.02721379941795E-5,0,0,0.150000005960464,0,,Auto,80.3366048530343,2181.36572265625,2.79999995231628,0.600000023841858,1.20000004768372,0.349999994039536,,N/A,N/A,N/A,False,Road 1,4.40510702133179,0,0,0,0,0,0,0,2,0,0,0,0,0,True,50,True,0.521129876410163,2.11089558246194,N/A,
1.03883913231678,oo,car,5,,2167.81567382813,4.57538986206055,4334.37269283786,2.15879894687382,-8.48055061503772E-5,-0.015623671002686,0.832050263881683,8.48055060487241E-5,-0.554700195789337,-8.48055060487241E-5,-0.015623671002686,999,0,0,0,0,50.0977111816406,13.9160308837891,0,0,0.195293784141541,0,0,0,0,0,0,0,0,0,0,0,0,4.63489198684692,-4.24723002652172E-5,0,0,0.200000002980232,0,,Auto,80.3738130516173,2181.36572265625,2.79999995231628,0.600000023841858,1.20000004768372,0.349999994039536,,N/A,N/A,N/A,False,Road 1,4.63465595245361,0,0,0,0,0,0,0,2,0,0,0,0,0,True,50,True,0.521129876410163,2.11089558246194,N/A,
1.05556849672678,oo,car,5,,2168.01000976563,4.57540988922119,4334.50208736911,2.15879894687382,-8.42946247846713E-5,-0.0156236225739121,0.832050263881683,8.42946246848442E-5,-0.554700195789337,-8.42946246848442E-5,-0.0156236225739121,999,0,0,0,0,50.1095077514648,13.9193077087402,0,0,0.195309802889824,0,0,0,0,0,0,0,0,0,0,0,0,4.86841535568237,-4.46855228801724E-5,0,0,0.200000002980232,0,,Auto,80.4116689498063,2181.36572265625,2.79999995231628,0.600000023841858,1.20000004768372,0.349999994039536,,N/A,N/A,N/A,False,Road 1,4.86812496185303,0,0,0,0,0,0,0,2,0,0,0,0,0,True,50,True,0.521129876410163,2.11089558246194,N/A,
1.07231928100638,oo,car,5,,2168.2041015625,4.57542943954468,4334.63148190036,2.15879894687382,-8.42946247846713E-5,-0.0156236346811056,0.832050263881683,8.42946246848442E-5,-0.554700195789337,-8.42946246848442E-5,-0.0156236346811056,999,0,0,0,0,50.121297454834,13.9225826263428,0,0,0.195336207747459,0,0,0,0,0,0,0,0,0,0,0,0,5.10181331634521,-4.35656402260065E-5,0,0,0.200000002980232,0,,Auto,80.4495117182754,2181.36572265625,2.79999995231628,0.600000023841858,1.20000004768372,0.349999994039536,,N/A,N/A,N/A,False,Road 1,5.10138750076294,0,0,0,0,0,0,0,2,0,0,0,0,0,True,50,True,0.521129876410163,2.11089558246194,N/A,
1.08887371648125,oo,car,5,,2168.3955078125,4.57544851303101,4334.75892330661,2.15879894687382,-8.41243309961075E-5,-0.015623671002686,0.832050263881683,8.41243308968842E-5,-0.554700195789337,-8.41243308968842E-5,-0.015623671002686,999,0,0,0,0,50.1329120635986,13.9258089065552,0,0,0.19535756111145,0,0,0,0,0,0,0,0,0,0,0,0,5.3317985534668,-4.11377586715389E-5,0,0,0.200000002980232,0,,Auto,80.4868011706409,2181.36572265625,2.79999995231628,0.600000023841858,1.20000004768372,0.349999994039536,,N/A,N/A,N/A,False,Road 1,5.33133220672607,0,0,0,0,0,0,0,2,0,0,0,0,0,True,50,True,0.521129876410163,2.11089558246194,N/A,
1.10569857780991,oo,car,5,,2168.59057617188,4.57547044754028,4334.88880611911,2.15879894687382,-8.27619952396001E-5,-0.0156237063929439,0.832050263881683,8.27619951451197E-5,-0.554700195789337,-8.27619951451197E-5,-0.0156237063929439,1000,0,0,0,0,50.1447498321533,13.9290971755981,0,0,0.195380300283432,0,0,0,0,0,0,0,0,0,0,0,0,5.56621932983398,-3.87444051739294E-5,0,0,0.200000002980232,0,,Auto,80.5248159826316,2181.36572265625,2.79999995231628,0.600000023841858,1.20000004768372,0.349999994039536,,N/A,N/A,N/A,False,Road 1,5.56567859649658,0,0,0,0,0,0,0,2,0,0,0,0,0,True,50,True,0.521129876410163,2.11089558246194,N/A,
1.12222043723309,oo,car,5,,2168.78173828125,4.57549381256104,4335.01624752536,2.15879894687382,-8.41243309961075E-5,-0.0156237427145243,0.832050263881683,8.41243308968842E-5,-0.554700195789337,-8.41243308968842E-5,-0.0156237427145243,1000,0,0,0,0,50.1563472747803,13.932318687439,0,0,0.19541509449482,0,0,0,0,0,0,0,0,0,0,0,0,5.79585838317871,-3.63052458851598E-5,0,0,0.200000002980232,0,,Auto,80.562067736018,2181.36572265625,2.79999995231628,0.600000023841858,1.20000004768372,0.349999994039536,,N/A,N/A,N/A,False,Road 1,5.79562330245972,0,0,0,0,0,0,0,2,0,0,0,0,0,True,50,True,0.521129876410163,2.11089558246194,N/A,
1.13884002481135,oo,car,5,,2168.974609375,4.57551574707031,4335.14466549411,2.15879894687382,-8.41243309961075E-5,-0.0156237781047821,0.832050263881683,8.41243308968842E-5,-0.554700195789337,-8.41243308968842E-5,-0.0156237781047821,1000,0,0,0,0,50.1717418670654,13.9365949630737,0,0,0.256996363401413,0,0,0,0,0,0,0,0,0,0,0,0,6.02772951126099,-3.39118960255291E-5,0,0,0.25,0,,Auto,80.6115294925264,2181.36572265625,2.79999995231628,0.600000023841858,1.20000004768372,0.349999994039536,,N/A,N/A,N/A,False,Road 1,6.02705812454224,0,0,0,0,0,0,0,2,0,0,0,0,0,True,50,True,0.521129876410163,2.11089558246194,N/A,
1.15551539330004,oo,car,5,,2169.16845703125,4.57552862167358,4335.27406002536,2.15879894687382,-8.41243309961075E-5,-0.0156238144263625,0.832050263881683,8.41243308968842E-5,-0.554700195789337,-8.41243308968842E-5,-0.0156238144263625,1001,0,0,0,0,50.187215423584,13.9408931732178,0,0,0.257037132978439,0,0,0,0,0,0,0,0,0,0,0,0,6.26082897186279,-3.15030411002226E-5,0,0,0.25,0,,Auto,80.6612602516945,2181.36572265625,2.79999995231628,0.600000023841858,1.20000004768372,0.349999994039536,,N/A,N/A,N/A,False,Road 1,6.26004981994629,0,0,0,0,0,0,0,2,0,0,0,0,0,True,50,True,0.521129876410163,2.11089558246194,N/A,
1.17241522417232,oo,car,5,,2169.36401367188,4.57555294036865,4335.40443111911,2.15879894687382,-8.41243309961075E-5,-0.0156238498166203,0.832050263881683,8.41243308968842E-5,-0.554700195789337,-8.41243308968842E-5,-0.0156238498166203,1001,0,0,0,0,50.2028125762939,13.9452257156372,0,0,0.2570780813694,0,0,0,0,0,0,0,0,0,0,0,0,6.49582958221436,-2.90779753413517E-5,0,0,0.25,0,,Auto,80.7114037584385,2181.36572265625,2.79999995231628,0.600000023841858,1.20000004768372,0.349999994039536,,N/A,N/A,N/A,False,Road 1,6.49527597427368,0,0,0,0,0,0,0,2,0,0,0,0,0,True,50,True,0.521129876410163,2.11089558246194,N/A,
1.18883667795672,oo,car,5,,2169.5546875,4.5755763053894,4335.53138424411,2.15879894687382,-8.48055061503772E-5,-0.0156238861382008,0.832050263881683,8.48055060487241E-5,-0.554700195789337,-8.48055060487241E-5,-0.0156238861382008,1001,0,0,0,0,50.2180114746094,13.9494476318359,0,0,0.257119357585907,0,0,0,0,0,0,0,0,0,0,0,0,6.72487115859985,-2.66296538029565E-5,0,0,0.25,0,,Auto,80.7602819009579,2181.36572265625,2.79999995231628,0.600000023841858,1.20000004768372,0.349999994039536,,N/A,N/A,N/A,False,Road 1,6.72407007217407,0,0,0,0,0,0,0,2,0,0,0,0,0,True,50,True,0.521129876410163,2.11089558246194,N/A,
1.20563431820109,oo,car,5,,2169.76245117188,4.57558870315552,4335.67005611911,2.15879894687382,-8.17402470602993E-5,-0.0156239224597812,0.832050263881683,8.17402469692752E-5,-0.554700195789337,-8.17402469692752E-5,-0.0156239224597812,1001,0,0,0,0,50.2345836639404,13.9540510177612,0,0,0.257152885198593,0,0,0,0,0,0,0,0,0,0,0,0,6.97461175918579,-2.42482838075375E-5,0,0,0.25,0,,Auto,80.8135932718339,2181.36572265625,2.79999995231628,0.600000023841858,1.20000004768372,0.349999994039536,,N/A,N/A,N/A,False,Road 1,6.97398948669434,0,0,0,0,0,0,0,2,0,0,0,0,0,True,50,True,0.521129876410163,2.11089558246194,N/A,
1.22233646152679,oo,car,5,,2169.943359375,4.57561159133911,4335.79066158786,2.15879894687382,-8.41243309961075E-5,-0.0156239606440067,0.832050263881683,8.41243308968842E-5,-0.554700195789337,-8.41243308968842E-5,-0.0156239606440067,1002,0,0,0,0,50.2490135192871,13.9580593109131,0,0,0.257226824760437,0,0,0,0,0,0,0,0,0,0,0,0,7.19209480285645,-2.16470307350392E-5,0,0,0.25,0,,Auto,80.8600272565813,2181.36572265625,2.79999995231628,0.600000023841858,1.20000004768372,0.349999994039536,,N/A,N/A,N/A,False,Road 1,7.19161081314087,0,0,0,0,0,0,0,2,0,0,0,0,0,True,50,True,0.521129876410163,2.11089558246194,N/A,
1.23915819912446,oo,car,5,,2170.13891601563,4.57562685012817,4335.92103268161,2.15879894687382,-8.41243309961075E-5,-0.0156239941716194,0.832050263881683,8.41243308968842E-5,-0.554700195789337,-8.41243308968842E-5,-0.0156239941716194,1002,0,0,0,0,50.2683322906494,13.9634256362915,0,0,0.318892747163773,0,0,0,0,0,0,0,0,0,0,0,0,7.42704486846924,-1.93819469131995E-5,0,0,0.300000011920929,0,,Auto,80.9222142153166,2181.36572265625,2.79999995231628,0.600000023841858,1.20000004768372,0.349999994039536,,N/A,N/A,N/A,False,Road 1,7.42636346817017,0,0,0,0,0,0,0,2,0,0,0,0,0,True,50,True,0.521129876410163,2.11089558246194,N/A,
1.25576529177879,oo,car,5,,2170.33203125,4.57564449310303,4336.04993893161,2.15879894687382,-8.41243309961075E-5,-0.0156240304931998,0.832050263881683,8.41243308968842E-5,-0.554700195789337,-8.41243308968842E-5,-0.0156240304931998,1002,0,0,0,0,50.2874073028564,13.9687242507935,0,0,0.318959981203079,0,0,0,0,0,0,0,0,0,0,0,0,7.65903663635254,-1.69385602930561E-5,0,0,0.300000011920929,0,,Auto,80.9836399687604,2181.36572265625,2.79999995231628,0.600000023841858,1.20000004768372,0.349999994039536,,N/A,N/A,N/A,False,Road 1,7.65874576568604,0,0,0,0,0,0,0,2,0,0,0,0,0,True,50,True,0.521129876410163,2.11089558246194,N/A,
1.27221575163661,oo,car,5,,2170.5234375,4.57567262649536,4336.17738033786,2.15879894687382,-8.49757926629932E-5,-0.0156240668147802,0.832050263881683,8.49757925607264E-5,-0.554700195789337,-8.49757925607264E-5,-0.0156240668147802,1003,0,0,0,0,50.3063175201416,13.9739770889282,0,0,0.319026410579681,0,0,0,0,0,0,0,0,0,0,0,0,7.88906526565552,-1.45198364407406E-5,0,0,0.300000011920929,0,,Auto,81.0445580494451,2181.36572265625,2.79999995231628,0.600000023841858,1.20000004768372,0.349999994039536,,N/A,N/A,N/A,False,Road 1,7.88869047164917,0,0,0,0,0,0,0,2,0,0,0,0,0,True,50,True,0.521129876410163,2.11089558246194,N/A,
1.28881436559255,oo,car,5,,2170.71655273438,4.57568311691284,4336.30628658786,2.15879894687382,-8.39540444835038E-5,-0.0156241022050381,0.832050263881683,8.39540443848819E-5,-0.554700195789337,-8.39540443848819E-5,-0.0156241022050381,1003,0,0,0,0,50.325382232666,13.9792728424072,0,0,0.319083839654922,0,0,0,0,0,0,0,0,0,0,0,0,8.12105178833008,-1.21264856716152E-5,0,0,0.300000011920929,0,,Auto,81.105997011811,2181.36572265625,2.79999995231628,0.600000023841858,1.20000004768372,0.349999994039536,,N/A,N/A,N/A,False,Road 1,8.1208028793335,0,0,0,0,0,0,0,2,0,0,0,0,0,True,50,True,0.521129876410163,2.11089558246194,N/A,
1.30560084965483,oo,car,5,,2170.91186523438,4.57570314407349,4336.43665768161,2.15879894687382,-8.41243309961075E-5,-0.0156241385266185,0.832050263881683,8.41243308968842E-5,-0.554700195789337,-8.41243308968842E-5,-0.0156241385266185,1004,0,0,0,0,50.3446838378906,13.9846343994141,0,0,0.31916019320488,0,0,0,0,0,0,0,0,0,0,0,0,8.35592842102051,-9.71057852439117E-6,0,0,0.300000011920929,0,,Auto,81.1682231122216,2181.36572265625,2.79999995231628,0.600000023841858,1.20000004768372,0.349999994039536,,N/A,N/A,N/A,False,Road 1,8.35562324523926,0,0,0,0,0,0,0,2,0,0,0,0,0,True,50,True,0.521129876410163,2.11089558246194,N/A,
1.32227086317612,oo,car,5,,2171.10620117188,4.57572269439697,4336.56605221286,2.15879894687382,-8.41243309961075E-5,-0.0156241748481989,0.832050263881683,8.41243308968842E-5,-0.554700195789337,-8.41243308968842E-5,-0.0156241748481989,1004,0,0,0,0,50.363875579834,13.9899654388428,0,0,0.319225668907166,0,0,0,0,0,0,0,0,0,0,0,0,8.58951473236084,-7.2664811341383E-6,0,0,0.300000011920929,0,,Auto,81.2301186844078,2181.36572265625,2.79999995231628,0.600000023841858,1.20000004768372,0.349999994039536,,N/A,N/A,N/A,False,Road 1,8.58908939361572,0,0,0,0,0,0,0,2,0,0,0,0,0,True,50,True,0.521129876410163,2.11089558246194,N/A,
1.33880164754497,oo,car,5,,2171.29809570313,4.57574415206909,4336.69398190036,2.15879894687382,-8.48055061503772E-5,-0.0156242111697793,0.832050263881683,8.48055060487241E-5,-0.554700195789337,-8.48055060487241E-5,-0.0156242111697793,1004,0,0,0,0,50.3828235626221,13.995228767395,0,0,0.319292455911636,0,0,0,0,0,0,0,0,0,0,0,0,8.82015514373779,-4.83647818327881E-6,0,0,0.300000011920929,0,,Auto,81.2912512483025,2181.36572265625,2.79999995231628,0.600000023841858,1.20000004768372,0.349999994039536,,N/A,N/A,N/A,False,Road 1,8.81971168518066,0,0,0,0,0,0,0,2,0,0,0,0,0,True,50,True,0.521129876410163,2.11089558246194,N/A,
1.35561803017524,oo,car,5,,2171.49438476563,4.575767993927,4336.82484127536,2.15879894687382,-8.48055061503772E-5,-0.0156242465600371,0.832050263881683,8.48055060487241E-5,-0.554700195789337,-8.48055060487241E-5,-0.0156242465600371,1005,0,0,0,0,50.4003192901611,14.0000886917114,0,0,0.288470149040222,0,0,0,0,0,0,0,0,0,0,0,0,9.05595779418945,-2.4360749648622E-6,0,0,0.275000005960464,0,,Auto,81.3477187673802,2181.36572265625,2.79999995231628,0.600000023841858,1.20000004768372,0.349999994039536,,N/A,N/A,N/A,False,Road 1,9.05581951141357,0,0,0,0,0,0,0,2,0,0,0,0,0,True,50,True,0.521129876410163,2.11089558246194,N/A,
1.37218719181047,oo,car,5,,2171.68725585938,4.57578992843628,4336.95325924411,2.15879894687382,-8.41243309961075E-5,-0.0156242828816175,0.832050263881683,8.41243308968842E-5,-0.554700195789337,-8.41243308968842E-5,-0.0156242828816175,1005,0,0,0,0,50.4175231933594,14.0048675537109,0,0,0.288523644208908,0,0,0,0,0,0,0,0,0,0,0,0,9.28789234161377,2.14115765118095E-8,0,0,0.275000005960464,0,,Auto,81.4032635399032,2181.36572265625,2.79999995231628,0.600000023841858,1.20000004768372,0.349999994039536,,N/A,N/A,N/A,False,Road 1,9.28725433349609,0,0,0,0,0,0,0,2,0,0,0,0,0,True,50,True,0.521129876410163,2.11089558246194,N/A,
1.38906694155499,oo,car,5,,2171.88232421875,4.57581186294556,4337.08314205661,2.15879894687382,-8.48055061503772E-5,-0.015624319203198,0.832050263881683,8.48055060487241E-5,-0.554700195789337,-8.48055060487241E-5,-0.015624319203198,1005,0,0,0,0,50.4349056243896,14.0096960067749,0,0,0.288582921028137,0,0,0,0,0,0,0,0,0,0,0,0,9.52225685119629,2.43027170654386E-6,0,0,0.275000005960464,0,,Auto,81.4594039627836,2181.36572265625,2.79999995231628,0.600000023841858,1.20000004768372,0.349999994039536,,N/A,N/A,N/A,False,Road 1,9.52153301239014,0,0,0,0,0,0,0,2,0,0,0,0,0,True,50,True,0.521129876410163,2.11089558246194,N/A,
1.4054397543855,oo,car,5,,2172.07470703125,4.57582902908325,4337.21156002536,2.15879894687382,-8.49757926629932E-5,-0.0156243555247784,0.832050263881683,8.49757925607264E-5,-0.554700195789337,-8.49757925607264E-5,-0.0156243555247784,1006,0,0,0,0,50.4520614624023,14.014461517334,0,0,0.288629412651062,0,0,0,0,0,0,0,0,0,0,0,0,9.75361251831055,4.86873204863514E-6,0,0,0.275000005960464,0,,Auto,81.5148315285876,2181.36572265625,2.79999995231628,0.600000023841858,1.20000004768372,0.349999994039536,,N/A,N/A,N/A,False,Road 1,9.75296783447266,0,0,0,0,0,0,0,2,0,0,0,0,0,True,50,True,0.521129876410163,2.11089558246194,N/A,
1.42217358126832,oo,car,5,,2172.26806640625,4.57584857940674,4337.34046627536,2.15879894687382,-8.41243309961075E-5,-0.0156243909150362,0.832050263881683,8.41243308968842E-5,-0.554700195789337,-8.41243308968842E-5,-0.0156243909150362,1006,0,0,0,0,50.469299697876,14.0192499160767,0,0,0.288680166006088,0,0,0,0,0,0,0,0,0,0,0,0,9.98611068725586,7.27759197616251E-6,0,0,0.275000005960464,0,,Auto,81.5705442933855,2181.36572265625,2.79999995231628,0.600000023841858,1.20000004768372,0.349999994039536,,N/A,N/A,N/A,False,Road 1,9.98528289794922,0,0,0,0,0,0,0,2,0,0,0,0,0,True,50,True,0.521129876410163,2.11089558246194,N/A,
1.43875925405304,oo,car,5,,2172.4619140625,4.57586145401001,4337.46986080661,2.15879894687382,-8.39540444835038E-5,-0.0156244272366166,0.832050263881683,8.39540443848819E-5,-0.554700195789337,-8.39540443848819E-5,-0.0156244272366166,1006,0,0,0,0,50.486572265625,14.0240478515625,0,0,0.288741230964661,0,0,0,0,0,0,0,0,0,0,0,0,10.2191076278687,9.6956155175576E-6,0,0,0.275000005960464,0,,Auto,81.626387107017,2181.36572265625,2.79999995231628,0.600000023841858,1.20000004768372,0.349999994039536,,N/A,N/A,N/A,False,Road 1,10.2182750701904,0,0,0,0,0,0,0,2,0,0,0,0,0,True,50,True,0.521129876410163,2.11089558246194,N/A,
1.45563677256115,oo,car,5,,2172.65844726563,4.57588815689087,4337.60072018161,2.15879894687382,-8.49757926629932E-5,-0.0156244626268744,0.832050263881683,8.49757925607264E-5,-0.554700195789337,-8.49757925607264E-5,-0.0156244626268744,1007,0,0,0,0,50.5040679931641,14.0289077758789,0,0,0.288795709609985,0,0,0,0,0,0,0,0,0,0,0,0,10.4551696777344,1.21206840049126E-5,0,0,0.275000005960464,0,,Auto,81.6829708842645,2181.36572265625,2.79999995231628,0.600000023841858,1.20000004768372,0.349999994039536,,N/A,N/A,N/A,False,Road 1,10.4545860290527,0,0,0,0,0,0,0,2,0,0,0,0,0,True,50,True,0.521129876410163,2.11089558246194,N/A,
1.47217380439197,oo,car,5,,2172.85327148438,4.57590770721436,4337.73060299411,2.15879894687382,-8.48055061503772E-5,-0.0156244998797774,0.832050263881683,8.48055060487241E-5,-0.554700195789337,-8.48055060487241E-5,-0.0156244998797774,1007,0,0,0,0,50.5204891204834,14.0334692001343,0,0,0.273373007774353,0,0,0,0,0,0,0,0,0,0,0,0,10.6892700195313,1.45802869155887E-5,0,0,0.262499988079071,0,,Auto,81.7360970810474,2181.36572265625,2.79999995231628,0.600000023841858,1.20000004768372,0.349999994039536,,N/A,N/A,N/A,False,Road 1,10.6886615753174,0,0,0,0,0,0,0,2,0,0,0,0,0,True,50,True,0.521129876410163,2.11089558246194,N/A,
1.48879339197023,oo,car,5,,2173.04760742188,4.575927734375,4337.85999752536,2.15879894687382,-8.41243309961075E-5,-0.0156245362013578,0.832050263881683,8.41243308968842E-5,-0.554700195789337,-8.41243308968842E-5,-0.0156245362013578,1008,0,0,0,0,50.5368621826172,14.0380172729492,0,0,0.273421436548233,0,0,0,0,0,0,0,0,0,0,0,0,10.9227199554443,1.70166313182563E-5,0,0,0.262499988079071,0,,Auto,81.7890849708223,2181.36572265625,2.79999995231628,0.600000023841858,1.20000004768372,0.349999994039536,,N/A,N/A,N/A,False,Road 1,10.9220600128174,0,0,0,0,0,0,0,2,0,0,0,0,0,True,50,True,0.521129876410163,2.11089558246194,N/A,
1.5053911134316,oo,car,5,,2173.24267578125,4.57594919204712,4337.98988033786,2.15879894687382,-8.48055061503772E-5,-0.0156245715916157,0.832050263881683,8.48055060487241E-5,-0.554700195789337,-8.48055060487241E-5,-0.0156245715916157,1008,0,0,0,0,50.5533039093018,14.0425844192505,0,0,0.27347469329834,0,0,0,0,0,0,0,0,0,0,0,0,11.1572046279907,1.94459316844586E-5,0,0,0.262499988079071,0,,Auto,81.8423123567237,2181.36572265625,2.79999995231628,0.600000023841858,1.20000004768372,0.349999994039536,,N/A,N/A,N/A,False,Road 1,11.1563405990601,0,0,0,0,0,0,0,2,0,0,0,0,0,True,50,True,0.521129876410163,2.11089558246194,N/A,
1.52223070092061,oo,car,5,,2173.43798828125,4.57596683502197,4338.12025143161,2.15879894687382,-8.41243309961075E-5,-0.0156245939433575,0.832050263881683,8.41243308968842E-5,-0.554700195789337,-8.41243308968842E-5,-0.0156245939433575,1008,0,0,0,0,50.569762802124,14.0471563339233,0,0,0.273514807224274,0,0,0,0,0,0,0,0,0,0,0,0,11.3919849395752,2.1178000679356E-5,0,0,0.262499988079071,0,,Auto,81.8956126565461,2181.36572265625,2.79999995231628,0.600000023841858,1.20000004768372,0.349999994039536,,N/A,N/A,N/A,False,Road 1,11.391303062439,0,0,0,0,0,0,0,2,0,0,0,0,0,True,50,True,0.521129876410163,2.11089558246194,N/A,
1.53884850350973,oo,car,5,,2173.63256835938,4.57598686218262,4338.25013424411,2.15879894687382,-8.41243309961075E-5,-0.0156245725229383,0.832050263881683,8.41243308968842E-5,-0.554700195789337,-8.41243308968842E-5,-0.0156245725229383,1009,0,0,0,0,50.5861633300781,14.0517120361328,0,0,0.27356830239296,0,0,0,0,0,0,0,0,0,0,0,0,11.6259508132935,2.06775766855571E-5,0,0,0.262499988079071,0,,Auto,81.9487412064544,2181.36572265625,2.79999995231628,0.600000023841858,1.20000004768372,0.349999994039536,,N/A,N/A,N/A,False,Road 1,11.6251831054688,0,0,0,0,0,0,0,2,0,0,0,0,0,True,50,True,0.521129876410163,2.11089558246194,N/A,
1.55557920666158,oo,car,5,,2173.82836914063,4.57600831985474,4338.38050533786,2.15879894687382,-8.48055061503772E-5,-0.015624551102519,0.832050263881683,8.48055060487241E-5,-0.554700195789337,-8.48055060487241E-5,-0.015624551102519,1009,0,0,0,0,50.6026668548584,14.0562963485718,0,0,0.273614972829819,0,0,0,0,0,0,0,0,0,0,0,0,11.8613977432251,2.01794609893113E-5,0,0,0.262499988079071,0,,Auto,82.0022207987628,2181.36572265625,2.79999995231628,0.600000023841858,1.20000004768372,0.349999994039536,,N/A,N/A,N/A,False,Road 1,11.8603496551514,0,0,0,0,0,0,0,2,0,0,0,0,0,True,50,True,0.521129876410163,2.11089558246194,N/A,
1.57225948387039,oo,car,5,,2174.02294921875,4.57602643966675,4338.51038815036,2.15879894687382,-8.51460864515692E-5,-0.0156245296820998,0.832050263881683,8.51460863486864E-5,-0.554700195789337,-8.51460863486864E-5,-0.0156245296820998,1009,0,0,0,0,50.6185901641846,14.0607194900513,0,0,0.265911877155304,0,0,0,0,0,0,0,0,0,0,0,0,12.0952196121216,1.9678602257045E-5,0,0,0.256249994039536,0,,Auto,82.0538367411711,2181.36572265625,2.79999995231628,0.600000023841858,1.20000004768372,0.349999994039536,,N/A,N/A,N/A,False,Road 1,12.0944318771362,0,0,0,0,0,0,0,2,0,0,0,0,0,True,50,True,0.521129876410163,2.11089558246194,N/A,
1.58877955830444,oo,car,5,,2174.21655273438,4.57604598999023,4338.63929440036,2.15879894687382,-8.41243309961075E-5,-0.0156245082616806,0.832050263881683,8.41243308968842E-5,-0.554700195789337,-8.41243308968842E-5,-0.0156245082616806,1009,0,0,0,0,50.6344310760498,14.0651197433472,0,0,0.265952110290527,0,0,0,0,0,0,0,0,0,0,0,0,12.3278722763062,1.91800536413211E-5,0,0,0.256249994039536,0,,Auto,82.1052017032113,2181.36572265625,2.79999995231628,0.600000023841858,1.20000004768372,0.349999994039536,,N/A,N/A,N/A,False,Road 1,12.3269577026367,0,0,0,0,0,0,0,2,0,0,0,0,0,True,50,True,0.521129876410163,2.11089558246194,N/A,
1.60544734058931,oo,car,5,,2174.41162109375,4.57606744766235,4338.76917721286,2.15879894687382,-8.41243309961075E-5,-0.0156244868412614,0.832050263881683,8.41243308968842E-5,-0.554700195789337,-8.41243308968842E-5,-0.0156244868412614,1010,0,0,0,0,50.6503818511963,14.0695505142212,0,0,0.266005545854568,0,0,0,0,0,0,0,0,0,0,0,0,12.5622119903564,1.868482104328E-5,0,0,0.256249994039536,0,,Auto,82.1569391420829,2181.36572265625,2.79999995231628,0.600000023841858,1.20000004768372,0.349999994039536,,N/A,N/A,N/A,False,Road 1,12.5612440109253,0,0,0,0,0,0,0,2,0,0,0,0,0,True,50,True,0.521129876410163,2.11089558246194,N/A,
1.62215439263513,oo,car,5,,2174.607421875,4.57608699798584,4338.89954830661,2.15879894687382,-8.48055061503772E-5,-0.0156244654208422,0.832050263881683,8.48055060487241E-5,-0.554700195789337,-8.48055060487241E-5,-0.0156244654208422,1010,0,0,0,0,50.666397857666,14.0739994049072,0,0,0.266049206256866,0,0,0,0,0,0,0,0,0,0,0,0,12.7974987030029,1.81858395080781E-5,0,0,0.256249994039536,0,,Auto,82.2089045590237,2181.36572265625,2.79999995231628,0.600000023841858,1.20000004768372,0.349999994039536,,N/A,N/A,N/A,False,Road 1,12.796612739563,0,0,0,0,0,0,0,2,0,0,0,0,0,True,50,True,0.521129876410163,2.11089558246194,N/A,
1.63916176910273,oo,car,5,,2174.81079101563,4.57610607147217,4339.03529049411,2.15879894687382,-8.41243309961075E-5,-0.015624444000423,0.832050263881683,8.41243308968842E-5,-0.554700195789337,-8.41243308968842E-5,-0.015624444000423,1010,0,0,0,0,50.6830318450928,14.0786199569702,0,0,0.266086369752884,0,0,0,0,0,0,0,0,0,0,0,0,13.041937828064,1.76845496753231E-5,0,0,0.256249994039536,0,,Auto,82.2628924647885,2181.36572265625,2.79999995231628,0.600000023841858,1.20000004768372,0.349999994039536,,N/A,N/A,N/A,False,Road 1,13.0412588119507,0,0,0,0,0,0,0,2,0,0,0,0,0,True,50,True,0.521129876410163,2.11089558246194,N/A,
1.65615441940997,oo,car,5,,2175.00537109375,4.57612562179565,4339.16517330661,2.15879894687382,-8.41243309961075E-5,-0.0156244216486812,0.832050263881683,8.41243308968842E-5,-0.554700195789337,-8.41243308968842E-5,-0.0156244216486812,1011,0,0,0,0,50.6989517211914,14.0830421447754,0,0,0.266138583421707,0,0,0,0,0,0,0,0,0,0,0,0,13.2759113311768,1.71635037986562E-5,0,0,0.256249994039536,0,,Auto,82.3145792201879,2181.36572265625,2.79999995231628,0.600000023841858,1.20000004768372,0.349999994039536,,N/A,N/A,N/A,False,Road 1,13.2751379013062,0,0,0,0,0,0,0,2,0,0,0,0,0,True,50,True,0.521129876410163,2.11089558246194,N/A,
1.6723268672102,oo,car,5,,2175.19506835938,4.57614469528198,4339.29163815036,2.15879894687382,-8.41243309961075E-5,-0.0156244002282619,0.832050263881683,8.41243308968842E-5,-0.554700195789337,-8.41243308968842E-5,-0.0156244002282619,1011,0,0,0,0,50.7142364501953,14.087287902832,0,0,0.262305468320847,0,0,0,0,0,0,0,0,0,0,0,0,13.5039043426514,1.6665386283421E-5,0,0,0.253125011920929,0,,Auto,82.3642191298224,2181.36572265625,2.79999995231628,0.600000023841858,1.20000004768372,0.349999994039536,,N/A,N/A,N/A,False,Road 1,13.5030584335327,0,0,0,0,0,0,0,2,0,0,0,0,0,True,50,True,0.521129876410163,2.11089558246194,N/A,
1.68906471031858,oo,car,5,,2175.39111328125,4.57616472244263,4339.42249752536,2.15879894687382,-8.41243309961075E-5,-0.0156243788078427,0.832050263881683,8.41243308968842E-5,-0.554700195789337,-8.41243308968842E-5,-0.0156243788078427,1011,0,0,0,0,50.7300224304199,14.0916728973389,0,0,0.26234644651413,0,0,0,0,0,0,0,0,0,0,0,0,13.7394113540649,1.61799634952331E-5,0,0,0.253125011920929,0,,Auto,82.4155026503519,2181.36572265625,2.79999995231628,0.600000023841858,1.20000004768372,0.349999994039536,,N/A,N/A,N/A,False,Road 1,13.7386989593506,0,0,0,0,0,0,0,2,0,0,0,0,0,True,50,True,0.521129876410163,2.11089558246194,N/A,
1.70556961234498,oo,car,5,,2175.58520507813,4.5761775970459,4339.55189205661,2.15879894687382,-8.17402470602993E-5,-0.0156243573874235,0.832050263881683,8.17402469692752E-5,-0.554700195789337,-8.17402469692752E-5,-0.0156243573874235,1012,0,0,0,0,50.7456504821777,14.0960140228271,0,0,0.262388855218887,0,0,0,0,0,0,0,0,0,0,0,0,13.9725637435913,1.56780952238478E-5,0,0,0.253125011920929,0,,Auto,82.4662888345904,2181.36572265625,2.79999995231628,0.600000023841858,1.20000004768372,0.349999994039536,,N/A,N/A,N/A,False,Road 1,13.9719009399414,0,0,0,0,0,0,0,2,0,0,0,0,0,True,50,True,0.521129876410163,2.11089558246194,N/A,
1.72237350005132,oo,car,5,,2175.78198242188,4.57619571685791,4339.68323971286,2.15879894687382,-8.20808273614042E-5,-0.0156243359670043,0.832050263881683,8.20808272692375E-5,-0.554700195789337,-8.20808272692375E-5,-0.0156243359670043,1012,0,0,0,0,50.7614948272705,14.1004152297974,0,0,0.262454152107239,0,0,0,0,0,0,0,0,0,0,0,0,14.2089967727661,1.51814210767043E-5,0,0,0.253125011920929,0,,Auto,82.5177938723799,2181.36572265625,2.79999995231628,0.600000023841858,1.20000004768372,0.349999994039536,,N/A,N/A,N/A,False,Road 1,14.2086925506592,0,0,0,0,0,0,0,2,0,0,0,0,0,True,50,True,0.521129876410163,2.11089558246194,N/A,
1.73889759071092,oo,car,5,,2175.98168945313,4.57621574401855,4339.81654049411,2.15879894687382,-8.41243309961075E-5,-0.0156243145465851,0.832050263881683,8.41243308968842E-5,-0.554700195789337,-8.41243308968842E-5,-0.0156243145465851,1012,0,0,0,0,50.777579498291,14.1048831939697,0,0,0.262493312358856,0,0,0,0,0,0,0,0,0,0,0,0,14.4490413665771,1.46771035360871E-5,0,0,0.253125011920929,0,,Auto,82.5700965816261,2181.36572265625,2.79999995231628,0.600000023841858,1.20000004768372,0.349999994039536,,N/A,N/A,N/A,False,Road 1,14.4488019943237,0,0,0,0,0,0,0,2,0,0,0,0,0,True,50,True,0.521129876410163,2.11089558246194,N/A,
1.75580322279788,oo,car,5,,2176.17529296875,4.57623529434204,4339.94544674411,2.15879894687382,-8.19105335728717E-5,-0.0156242921948433,0.832050263881683,8.19105334812775E-5,-0.554700195789337,-8.19105334812775E-5,-0.0156242921948433,1013,0,0,0,0,50.7931697845459,14.1092138290405,0,0,0.262516379356384,0,0,0,0,0,0,0,0,0,0,0,0,14.6817378997803,1.41657192216371E-5,0,0,0.253125011920929,0,,Auto,82.6208075085214,2181.36572265625,2.79999995231628,0.600000023841858,1.20000004768372,0.349999994039536,,N/A,N/A,N/A,False,Road 1,14.6813945770264,0,0,0,0,0,0,0,2,0,0,0,0,0,True,50,True,0.521129876410163,2.11089558246194,N/A,
1.77203680647594,oo,car,5,,2176.36328125,4.57625436782837,4340.07093502536,2.15879894687382,-8.41243309961075E-5,-0.0156242707744241,0.832050263881683,8.41243308968842E-5,-0.554700195789337,-8.41243308968842E-5,-0.0156242707744241,1013,0,0,0,0,50.808296585083,14.1134157180786,0,0,0.262579917907715,0,0,0,0,0,0,0,0,0,0,0,0,14.9075717926025,1.36703420139384E-5,0,0,0.253125011920929,0,,Auto,82.6700257235498,2181.36572265625,2.79999995231628,0.600000023841858,1.20000004768372,0.349999994039536,,N/A,N/A,N/A,False,Road 1,14.9074192047119,0,0,0,0,0,0,0,2,0,0,0,0,0,True,50,True,0.521129876410163,2.11089558246194,N/A,
1.78876304715495,oo,car,5,,2176.5615234375,4.57627439498901,4340.20325924411,2.15879894687382,-8.48055061503772E-5,-0.0156242502853274,0.832050263881683,8.48055060487241E-5,-0.554700195789337,-8.48055060487241E-5,-0.0156242502853274,1013,0,0,0,0,50.8241374969482,14.1178159713745,0,0,0.260657548904419,0,0,0,0,0,0,0,0,0,0,0,0,15.1458778381348,1.3188955563237E-5,0,0,0.251562505960464,0,,Auto,82.721583159118,2181.36572265625,2.79999995231628,0.600000023841858,1.20000004768372,0.349999994039536,,N/A,N/A,N/A,False,Road 1,15.1457681655884,0,0,0,0,0,0,0,2,0,0,0,0,0,True,50,True,0.521129876410163,2.11089558246194,N/A,
1.80552989633676,oo,car,5,,2176.75805664063,4.57629442214966,4340.33411861911,2.15879894687382,-8.41243309961075E-5,-0.0156242279335856,0.832050263881683,8.41243308968842E-5,-0.554700195789337,-8.41243308968842E-5,-0.0156242279335856,1014,0,0,0,0,50.8398342132568,14.1221761703491,0,0,0.260692894458771,0,0,0,0,0,0,0,0,0,0,0,0,15.3820457458496,1.26813210954424E-5,0,0,0.251562505960464,0,,Auto,82.7726871344176,2181.36572265625,2.79999995231628,0.600000023841858,1.20000004768372,0.349999994039536,,N/A,N/A,N/A,False,Road 1,15.3818817138672,0,0,0,0,0,0,0,2,0,0,0,0,0,True,50,True,0.521129876410163,2.11089558246194,N/A,
1.82212181658344,oo,car,5,,2176.953125,4.57631397247314,4340.46400143161,2.15879894687382,-8.19105335728717E-5,-0.0156242065131664,0.832050263881683,8.19105334812775E-5,-0.554700195789337,-8.19105334812775E-5,-0.0156242065131664,1014,0,0,0,0,50.8554210662842,14.1265058517456,0,0,0.260741263628006,0,0,0,0,0,0,0,0,0,0,0,0,15.6165723800659,1.21784451039275E-5,0,0,0.251562505960464,0,,Auto,82.8234490420159,2181.36572265625,2.79999995231628,0.600000023841858,1.20000004768372,0.349999994039536,,N/A,N/A,N/A,False,Road 1,15.6162357330322,0,0,0,0,0,0,0,2,0,0,0,0,0,True,50,True,0.521129876410163,2.11089558246194,N/A,
1.83897479149096,oo,car,5,,2177.15161132813,4.57633399963379,4340.59632565036,2.15879894687382,-8.19105335728717E-5,-0.0156241850927472,0.832050263881683,8.19105334812775E-5,-0.554700195789337,-8.19105334812775E-5,-0.0156241850927472,1014,0,0,0,0,50.8712825775146,14.1309118270874,0,0,0.260804325342178,0,0,0,0,0,0,0,0,0,0,0,0,15.8552570343018,1.1679318959068E-5,0,0,0.251562505960464,0,,Auto,82.8751214068524,2181.36572265625,2.79999995231628,0.600000023841858,1.20000004768372,0.349999994039536,,N/A,N/A,N/A,False,Road 1,15.8547868728638,0,0,0,0,0,0,0,2,0,0,0,0,0,True,50,True,0.521129876410163,2.11089558246194,N/A,
1.85572200579229,oo,car,5,,2177.35009765625,4.57635402679443,4340.72864986911,2.15879894687382,-8.19105335728717E-5,-0.015624163672328,0.832050263881683,8.19105334812775E-5,-0.554700195789337,-8.19105334812775E-5,-0.015624163672328,1015,0,0,0,0,50.8871337890625,14.1353149414063,0,0,0.26084640622139,0,0,0,0,0,0,0,0,0,0,0,0,16.0938396453857,1.11712515717954E-5,0,0,0.251562505960464,0,,Auto,82.9267763163118,2181.36572265625,2.79999995231628,0.600000023841858,1.20000004768372,0.349999994039536,,N/A,N/A,N/A,False,Road 1,16.0933380126953,0,0,0,0,0,0,0,2,0,0,0,0,0,True,50,True,0.521129876410163,2.11089558246194,N/A,
1.87281149176004,oo,car,5,,2177.54809570313,4.57638263702393,4340.86048580661,2.15879894687382,-8.49757926629932E-5,-0.0156241413205862,0.832050263881683,8.49757925607264E-5,-0.554700195789337,-8.49757925607264E-5,-0.0156241413205862,1015,0,0,0,0,50.902950668335,14.1397085189819,0,0,0.260888457298279,0,0,0,0,0,0,0,0,0,0,0,0,16.3319473266602,1.06631860035122E-5,0,0,0.251562505960464,0,,Auto,82.978335386591,2181.36572265625,2.79999995231628,0.600000023841858,1.20000004768372,0.349999994039536,,N/A,N/A,N/A,False,Road 1,16.3312110900879,0,0,0,0,0,0,0,2,0,0,0,0,0,True,50,True,0.521129876410163,2.11089558246194,N/A,
1.88914905105515,oo,car,5,,2177.740234375,4.57640218734741,4340.98841549411,2.15879894687382,-8.41243309961075E-5,-0.015624119900167,0.832050263881683,8.41243308968842E-5,-0.554700195789337,-8.41243308968842E-5,-0.015624119900167,1015,0,0,0,0,50.9182319641113,14.1439533233643,0,0,0.259928494691849,0,0,0,0,0,0,0,0,0,0,0,0,16.5629081726074,1.01565638033208E-5,0,0,0.250781238079071,0,,Auto,83.0281638072055,2181.36572265625,2.79999995231628,0.600000023841858,1.20000004768372,0.349999994039536,,N/A,N/A,N/A,False,Road 1,16.5619773864746,0,0,0,0,0,0,0,2,0,0,0,0,0,True,50,True,0.521129876410163,2.11089558246194,N/A,
1.9055557786792,oo,car,5,,2177.93432617188,4.5764217376709,4341.11781002536,2.15879894687382,-8.41243309961075E-5,-0.0156240984797478,0.832050263881683,8.41243308968842E-5,-0.554700195789337,-8.41243308968842E-5,-0.0156240984797478,1016,0,0,0,0,50.9336608886719,14.1482391357422,0,0,0.259977161884308,0,0,0,0,0,0,0,0,0,0,0,0,16.7961235046387,9.66508014244027E-6,0,0,0.250781238079071,0,,Auto,83.0784887816602,2181.36572265625,2.79999995231628,0.600000023841858,1.20000004768372,0.349999994039536,,N/A,N/A,N/A,False,Road 1,16.7951793670654,0,0,0,0,0,0,0,2,0,0,0,0,0,True,50,True,0.521129876410163,2.11089558246194,N/A,
1.92221597476025,oo,car,5,,2178.13061523438,4.57644176483154,4341.24866940036,2.15879894687382,-8.41243309961075E-5,-0.0156240770593286,0.832050263881683,8.41243308968842E-5,-0.554700195789337,-8.41243308968842E-5,-0.0156240770593286,1016,0,0,0,0,50.9492752075195,14.1525764465332,0,0,0.260017842054367,0,0,0,0,0,0,0,0,0,0,0,0,17.0321750640869,9.16840599529678E-6,0,0,0.250781238079071,0,,Auto,83.1294339848427,2181.36572265625,2.79999995231628,0.600000023841858,1.20000004768372,0.349999994039536,,N/A,N/A,N/A,False,Road 1,17.0310211181641,0,0,0,0,0,0,0,2,0,0,0,0,0,True,50,True,0.521129876410163,2.11089558246194,N/A,
1.93892704303163,oo,car,5,,2178.32763671875,4.57646369934082,4341.38001705661,2.15879894687382,-8.49757926629932E-5,-0.0156240556389093,0.832050263881683,8.49757925607264E-5,-0.554700195789337,-8.49757925607264E-5,-0.0156240556389093,1016,0,0,0,0,50.9649272918701,14.1569242477417,0,0,0.260059028863907,0,0,0,0,0,0,0,0,0,0,0,0,17.2688426971436,8.66610844241222E-6,0,0,0.250781238079071,0,,Auto,83.1805180785765,2181.36572265625,2.79999995231628,0.600000023841858,1.20000004768372,0.349999994039536,,N/A,N/A,N/A,False,Road 1,17.2677459716797,0,0,0,0,0,0,0,2,0,0,0,0,0,True,50,True,0.521129876410163,2.11089558246194,N/A,
1.95554930809359,oo,car,5,,2178.5234375,4.57648324966431,4341.51038815036,2.15879894687382,-8.48055061503772E-5,-0.0156240332871675,0.832050263881683,8.48055060487241E-5,-0.554700195789337,-8.48055060487241E-5,-0.0156240332871675,1016,0,0,0,0,50.9804901123047,14.161247253418,0,0,0.260091990232468,0,0,0,0,0,0,0,0,0,0,0,0,17.504186630249,8.16193460195791E-6,0,0,0.250781238079071,0,,Auto,83.2313263965831,2181.36572265625,2.79999995231628,0.600000023841858,1.20000004768372,0.349999994039536,,N/A,N/A,N/A,False,Road 1,17.5031147003174,0,0,0,0,0,0,0,2,0,0,0,0,0,True,50,True,0.521129876410163,2.11089558246194,N/A,
1.97224208022634,oo,car,5,,2178.72021484375,4.57650136947632,4341.64173580661,2.15879894687382,-8.49757926629932E-5,-0.0156240118667483,0.832050263881683,8.49757925607264E-5,-0.554700195789337,-8.49757925607264E-5,-0.0156240118667483,1017,0,0,0,0,50.9961250305176,14.1655902862549,0,0,0.260134667158127,0,0,0,0,0,0,0,0,0,0,0,0,17.7406253814697,7.66064476920292E-6,0,0,0.250781238079071,0,,Auto,83.282385714552,2181.36572265625,2.79999995231628,0.600000023841858,1.20000004768372,0.349999994039536,,N/A,N/A,N/A,False,Road 1,17.7398376464844,0,0,0,0,0,0,0,2,0,0,0,0,0,True,50,True,0.521129876410163,2.11089558246194,N/A,
1.98904909166365,oo,car,5,,2178.91821289063,4.57652139663696,4341.77357174411,2.15879894687382,-8.41243309961075E-5,-0.0156239904463291,0.832050263881683,8.41243308968842E-5,-0.554700195789337,-8.41243308968842E-5,-0.0156239904463291,1017,0,0,0,0,51.0118560791016,14.1699600219727,0,0,0.260174214839935,0,0,0,0,0,0,0,0,0,0,0,0,17.9785976409912,7.1564709287486E-6,0,0,0.250781238079071,0,,Auto,83.3337747691064,2181.36572265625,2.79999995231628,0.600000023841858,1.20000004768372,0.349999994039536,,N/A,N/A,N/A,False,Road 1,17.9776458740234,0,0,0,0,0,0,0,2,0,0,0,0,0,True,50,True,0.521129876410163,2.11089558246194,N/A,
2.00549018032853,oo,car,5,,2179.11181640625,4.57654285430908,4341.90247799411,2.15879894687382,-8.41243309961075E-5,-0.0156239690259099,0.832050263881683,8.41243308968842E-5,-0.554700195789337,-8.41243308968842E-5,-0.0156239690259099,1017,0,0,0,0,51.026309967041,14.1739749908447,0,0,0.244651719927788,0,0,0,0,0,0,0,0,0,0,0,0,18.2111759185791,6.64998924548854E-6,0,0,0.238281235098839,0,,Auto,83.3810056592563,2181.36572265625,2.79999995231628,0.600000023841858,1.20000004768372,0.349999994039536,,N/A,N/A,N/A,False,Road 1,18.2101707458496,0,0,0,0,0,0,0,2,0,0,0,0,0,True,50,True,0.521129876410163,2.11089558246194,N/A,
2.02208388556435,oo,car,5,,2179.31103515625,4.57656097412109,4342.03529049411,2.15879894687382,-8.41243309961075E-5,-0.0156239476054907,0.832050263881683,8.41243308968842E-5,-0.554700195789337,-8.41243308968842E-5,-0.0156239476054907,1018,0,0,0,0,51.0411827087402,14.1781063079834,0,0,0.244686782360077,0,0,0,0,0,0,0,0,0,0,0,0,18.450532913208,6.15475664744736E-6,0,0,0.238281235098839,0,,Auto,83.4296192034623,2181.36572265625,2.79999995231628,0.600000023841858,1.20000004768372,0.349999994039536,,N/A,N/A,N/A,False,Road 1,18.4497375488281,0,0,0,0,0,0,0,2,0,0,0,0,0,True,50,True,0.521129876410163,2.11089558246194,N/A,
2.03881949743631,oo,car,5,,2179.5048828125,4.57658052444458,4342.16468502536,2.15879894687382,-8.41243309961075E-5,-0.0156239252537489,0.832050263881683,8.41243308968842E-5,-0.554700195789337,-8.41243308968842E-5,-0.0156239252537489,1018,0,0,0,0,51.0556537628174,14.1821260452271,0,0,0.244722858071327,0,0,0,0,0,0,0,0,0,0,0,0,18.6834487915039,5.64452693652129E-6,0,0,0.238281235098839,0,,Auto,83.4769333766172,2181.36572265625,2.79999995231628,0.600000023841858,1.20000004768372,0.349999994039536,,N/A,N/A,N/A,False,Road 1,18.6827373504639,0,0,0,0,0,0,0,2,0,0,0,0,0,True,50,True,0.521129876410163,2.11089558246194,N/A,
2.05565596119434,oo,car,5,,2179.70385742188,4.57660102844238,4342.29749752536,2.15879894687382,-8.42946247846713E-5,-0.0156239038333297,0.832050263881683,8.42946246848442E-5,-0.554700195789337,-8.42946246848442E-5,-0.0156239038333297,1018,0,0,0,0,51.0705024719238,14.1862506866455,0,0,0.2447579652071,0,0,0,0,0,0,0,0,0,0,0,0,18.9225006103516,5.14828616360319E-6,0,0,0.238281235098839,0,,Auto,83.5254962626943,2181.36572265625,2.79999995231628,0.600000023841858,1.20000004768372,0.349999994039536,,N/A,N/A,N/A,False,Road 1,18.9218978881836,0,0,0,0,0,0,0,2,0,0,0,0,0,True,50,True,0.521129876410163,2.11089558246194,N/A,
2.07213007215819,oo,car,5,,2179.89868164063,4.57662057876587,4342.42738033786,2.15879894687382,-8.41243309961075E-5,-0.0156238824129105,0.832050263881683,8.41243308968842E-5,-0.554700195789337,-8.41243308968842E-5,-0.0156238824129105,1019,0,0,0,0,51.0850421905518,14.1902894973755,0,0,0.244792282581329,0,0,0,0,0,0,0,0,0,0,0,0,19.1566066741943,4.63892092739115E-6,0,0,0.238281235098839,0,,Auto,83.5730622755444,2181.36572265625,2.79999995231628,0.600000023841858,1.20000004768372,0.349999994039536,,N/A,N/A,N/A,False,Road 1,19.1559791564941,0,0,0,0,0,0,0,2,0,0,0,0,0,True,50,True,0.521129876410163,2.11089558246194,N/A,
2.08888219517964,oo,car,5,,2180.09643554688,4.57664251327515,4342.55921627536,2.15879894687382,-8.48055061503772E-5,-0.0156238600611687,0.832050263881683,8.48055060487241E-5,-0.554700195789337,-8.48055060487241E-5,-0.0156238600611687,1019,0,0,0,0,51.0998050689697,14.194390296936,0,0,0.244829222559929,0,0,0,0,0,0,0,0,0,0,0,0,19.3943462371826,4.14037367590936E-6,0,0,0.238281235098839,0,,Auto,83.6213721986491,2181.36572265625,2.79999995231628,0.600000023841858,1.20000004768372,0.349999994039536,,N/A,N/A,N/A,False,Road 1,19.3935813903809,0,0,0,0,0,0,0,2,0,0,0,0,0,True,50,True,0.521129876410163,2.11089558246194,N/A,
2.10545715802955,oo,car,5,,2180.29174804688,4.57665348052979,4342.68958736911,2.15879894687382,-8.17402470602993E-5,-0.0156238386407495,0.832050263881683,8.17402469692752E-5,-0.554700195789337,-8.17402469692752E-5,-0.0156238386407495,1019,0,0,0,0,51.1143859863281,14.1984405517578,0,0,0.24485832452774,0,0,0,0,0,0,0,0,0,0,0,0,19.629150390625,3.63432786798512E-6,0,0,0.238281235098839,0,,Auto,83.6691003757375,2181.36572265625,2.79999995231628,0.600000023841858,1.20000004768372,0.349999994039536,,N/A,N/A,N/A,False,Road 1,19.6285457611084,0,0,0,0,0,0,0,2,0,0,0,0,0,True,50,True,0.521129876410163,2.11089558246194,N/A,
2.12198749615112,oo,car,5,,2180.48583984375,4.5766773223877,4342.81898190036,2.15879894687382,-8.41243309961075E-5,-0.0156238172203302,0.832050263881683,8.41243308968842E-5,-0.554700195789337,-8.41243308968842E-5,-0.0156238172203302,1019,0,0,0,0,51.1284038543701,14.2023344039917,0,0,0.237126842141151,0,0,0,0,0,0,0,0,0,0,0,0,19.8623218536377,3.13390296469152E-6,0,0,0.232031226158142,0,,Auto,83.7149983440486,2181.36572265625,2.79999995231628,0.600000023841858,1.20000004768372,0.349999994039536,,N/A,N/A,N/A,False,Road 1,19.8620185852051,0,0,0,0,0,0,0,2,0,0,0,0,0,True,50,True,0.521129876410163,2.11089558246194,N/A,
2.13895917283604,oo,car,5,,2180.6875,4.57670021057129,4342.95325924411,2.15879894687382,-8.41243309961075E-5,-0.015623795799911,0.832050263881683,8.41243308968842E-5,-0.554700195789337,-8.41243308968842E-5,-0.015623795799911,1020,0,0,0,0,51.1429744720459,14.2063817977905,0,0,0.237135946750641,0,0,0,0,0,0,0,0,0,0,0,0,20.10475730896,2.63665197053342E-6,0,0,0.232031226158142,0,,Auto,83.7627194911807,2181.36572265625,2.79999995231628,0.600000023841858,1.20000004768372,0.349999994039536,,N/A,N/A,N/A,False,Road 1,20.1040229797363,0,0,0,0,0,0,0,2,0,0,0,0,0,True,50,True,0.521129876410163,2.11089558246194,N/A,
2.15562650887363,oo,car,5,,2180.8837890625,4.57671594619751,4343.08411861911,2.15879894687382,-8.25917014510581E-5,-0.0156237734481692,0.832050263881683,8.25917013571598E-5,-0.554700195789337,-8.25917013571598E-5,-0.0156237734481692,1020,0,0,0,0,51.1571502685547,14.210319519043,0,0,0.237169742584229,0,0,0,0,0,0,0,0,0,0,0,0,20.3406791687012,2.12122995435493E-6,0,0,0.232031226158142,0,,Auto,83.809160584639,2181.36572265625,2.79999995231628,0.600000023841858,1.20000004768372,0.349999994039536,,N/A,N/A,N/A,False,Road 1,20.3398666381836,0,0,0,0,0,0,0,2,0,0,0,0,0,True,50,True,0.521129876410163,2.11089558246194,N/A,
2.1725669482487,oo,car,5,,2181.08374023438,4.57673788070679,4343.21741940036,2.15879894687382,-8.41243309961075E-5,-0.01562375202775,0.832050263881683,8.41243308968842E-5,-0.554700195789337,-8.41243308968842E-5,-0.01562375202775,1020,0,0,0,0,51.1715869903564,14.2143297195435,0,0,0.237217620015144,0,0,0,0,0,0,0,0,0,0,0,0,20.5809478759766,1.61893262884405E-6,0,0,0.232031226158142,0,,Auto,83.8564697194349,2181.36572265625,2.79999995231628,0.600000023841858,1.20000004768372,0.349999994039536,,N/A,N/A,N/A,False,Road 1,20.5805835723877,0,0,0,0,0,0,0,2,0,0,0,0,0,True,50,True,0.521129876410163,2.11089558246194,N/A,
2.18885542034263,oo,car,5,,2181.2783203125,4.57675361633301,4343.34730221286,2.15879894687382,-8.19105335728717E-5,-0.0156237296760082,0.832050263881683,8.19105334812775E-5,-0.554700195789337,-8.19105334812775E-5,-0.0156237296760082,1021,0,0,0,0,51.1856426239014,14.2182340621948,0,0,0.237236067652702,0,0,0,0,0,0,0,0,0,0,0,0,20.8148880004883,1.10625262550457E-6,0,0,0.232031226158142,0,,Auto,83.9025428530865,2181.36572265625,2.79999995231628,0.600000023841858,1.20000004768372,0.349999994039536,,N/A,N/A,N/A,False,Road 1,20.8142585754395,0,0,0,0,0,0,0,2,0,0,0,0,0,True,50,True,0.521129876410163,2.11089558246194,N/A,
2.20571732019581,oo,car,5,,2181.4833984375,4.57677841186523,4343.48402096286,2.15879894687382,-8.41243309961075E-5,-0.015623708255589,0.832050263881683,8.41243308968842E-5,-0.554700195789337,-8.41243308968842E-5,-0.015623708255589,1021,0,0,0,0,51.2004535675049,14.2223482131958,0,0,0.237290352582932,0,0,0,0,0,0,0,0,0,0,0,0,21.0614471435547,6.08569962423644E-7,0,0,0.232031226158142,0,,Auto,83.951105518529,2181.36572265625,2.79999995231628,0.600000023841858,1.20000004768372,0.349999994039536,,N/A,N/A,N/A,False,Road 1,21.0609359741211,0,0,0,0,0,0,0,2,0,0,0,0,0,True,50,True,0.521129876410163,2.11089558246194,N/A,
2.22218339870856,oo,car,5,,2181.6708984375,4.57679319381714,4343.60902096286,2.15879894687382,-8.17402470602993E-5,-0.0156236859038472,0.832050263881683,8.17402469692752E-5,-0.554700195789337,-8.17402469692752E-5,-0.0156236859038472,1021,0,0,0,0,51.2137607574463,14.2260446548462,0,0,0.233399987220764,0,0,0,0,0,0,0,0,0,0,0,0,21.2867202758789,8.31991044947245E-8,0,0,0.228906229138374,0,,Auto,83.9947496038933,2181.36572265625,2.79999995231628,0.600000023841858,1.20000004768372,0.349999994039536,,N/A,N/A,N/A,False,Road 1,21.2860126495361,0,0,0,0,0,0,0,2,0,0,0,0,0,True,50,True,0.521129876410163,2.11089558246194,N/A,
2.23881681995261,oo,car,5,,2181.86791992188,4.57681751251221,4343.74036861911,2.15879894687382,-8.42946247846713E-5,-0.0156236821785569,0.832050263881683,8.42946246848442E-5,-0.554700195789337,-8.42946246848442E-5,-0.0156236821785569,1021,0,0,0,0,51.2277408599854,14.2299280166626,0,0,0.233453512191772,0,0,0,0,0,0,0,0,0,0,0,0,21.5233860015869,-4.52776475867722E-7,0,0,0.228906229138374,0,,Auto,84.0406128822893,2181.36572265625,2.79999995231628,0.600000023841858,1.20000004768372,0.349999994039536,,N/A,N/A,N/A,False,Road 1,21.523006439209,0,0,0,0,0,0,0,2,0,0,0,0,0,True,50,True,0.521129876410163,2.11089558246194,N/A,
2.25534358809591,oo,car,5,,2182.06396484375,4.57683277130127,4343.87122799411,2.15879894687382,-8.41243309961075E-5,-0.0156236821785569,0.832050263881683,8.41243308968842E-5,-0.554700195789337,-8.41243308968842E-5,-0.0156236821785569,1022,0,0,0,0,51.2416488647461,14.2337913513184,0,0,0.23346009850502,0,0,0,0,0,0,0,0,0,0,0,0,21.7588787078857,-1.02964827419783E-6,0,0,0.228906229138374,0,,Auto,84.0862520570944,2181.36572265625,2.79999995231628,0.600000023841858,1.20000004768372,0.349999994039536,,N/A,N/A,N/A,False,Road 1,21.7584438323975,0,0,0,0,0,0,0,2,0,0,0,0,0,True,50,True,0.521129876410163,2.11089558246194,N/A,
2.27233713089772,oo,car,5,,2182.26489257813,4.57685327529907,4344.00501705661,2.15879894687382,-8.25917014510581E-5,-0.0156236821785569,0.832050263881683,8.25917013571598E-5,-0.554700195789337,-8.25917013571598E-5,-0.0156236821785569,1022,0,0,0,0,51.2559104919434,14.2377529144287,0,0,0.233493253588676,0,0,0,0,0,0,0,0,0,0,0,0,22.0003814697266,-1.60272691118735E-6,0,0,0.228906229138374,0,,Auto,84.1330645109496,2181.36572265625,2.79999995231628,0.600000023841858,1.20000004768372,0.349999994039536,,N/A,N/A,N/A,False,Road 1,22.0000419616699,0,0,0,0,0,0,0,2,0,0,0,0,0,True,50,True,0.521129876410163,2.11089558246194,N/A,
